[
{"store_name": "Jockey Outlet", "store_number": 29, "store_uid": 59, "address": "2601 S. McKenzie St", "address2": "Tanger Outlets/Foley", "city": "Foley", "state": "AL", "zip_code": "36535", "country": "US", "phone_number": "1-251-943-5100", "latitude": "30.37572", "longitude": "-87.679955", "store_hours": "Monday to Friday- 11:00am-7:00pm,Saturday- 11:00am-7:00pm,Sunday- 11:00am-7:00pm"},
{"store_name": "Jockey Outlet", "store_number": 92, "store_uid": 152, "address": "6200 Grand River Blvd. E Suite 310", "address2": "Outlet Shops of Grand River", "city": "Leeds", "state": "AL", "zip_code": "35094", "country": "US", "phone_number": "1-205-699-1622", "latitude": "33.5497158", "longitude": "-86.5961329", "store_hours": "Monday to Friday- 11:00am-7:00pm,Saturday- 11:00am-7:00pm,Sunday- 12:00pm-6:00pm"},
{"store_name": "Jockey Outlet", "store_number": 106, "store_uid": 161, "address": "4976 Premium Outlets Way, Suite 826", "address2": "Phoenix Premium Outlets", "city": "Chandler", "state": "AZ", "zip_code": "85226", "country": "US", "phone_number": "1-480-639-1703", "latitude": "33.2867764", "longitude": "-111.9730479", "store_hours": "Monday to Friday- 11:00am-7:00pm,Saturday- 11:00am-7:00pm,Sunday- 12:00pm-6:00pm"},
{"store_name": "Jockey Outlet", "store_number": 102, "store_uid": 160, "address": "6800 N. 95th Ave, Suite 840", "address2": "Tanger Outlets/Westgate", "city": "Glendale", "state": "AZ", "zip_code": "85305", "country": "US", "phone_number": "1-623-877-9553", "latitude": "33.535425", "longitude": "-112.2673688", "store_hours": "Monday to Friday- 11:00am-7:00pm,Saturday- 11:00am-7:00pm,Sunday- 11:00am-7:00pm"},
{"store_name": "Jockey Outlet", "store_number": 41, "store_uid": 77, "address": "48750 Seminole Drive Suite 107", "address2": "Cabazon Outlets", "city": "Cabazon", "state": "CA", "zip_code": "92230", "country": "US", "phone_number": "1-951-849-2003", "latitude": "33.9252914", "longitude": "-116.810667", "store_hours": "Sun-Thurs 11am-6pm\r\nFri-Sat 11am-7pm"},
{"store_name": "Jockey Outlet", "store_number": 64, "store_uid": 113, "address": "990 Camarillo Center Dr", "address2": "Camarillo Premium Outlets", "city": "Camarillo", "state": "CA", "zip_code": "93010", "country": "US", "phone_number": "1-805-482-6261", "latitude": "34.2147347", "longitude": "-119.0572673", "store_hours": "Monday to Friday- 11:00am-7:00pm,Saturday- 11:00am-7:00pm,Sunday- 12:00pm-6:00pm"},
{"store_name": "Jockey Outlet", "store_number": 104, "store_uid": 125, "address": "5600 Paseo Del Norte, Suite A 119", "address2": "Carlsbad Premium Outlets", "city": "Carlsbad", "state": "CA", "zip_code": "92008", "country": "US", "phone_number": "1-760-268-0180", "latitude": "33.1269372", "longitude": "-117.3219799", "store_hours": "Monday to Friday- 11:00am-7:00pm,Saturday- 11:00am-7:00pm,Sunday- 12:00pm-6:00pm"},
{"store_name": "Jockey Outlet", "store_number": 6, "store_uid": 19, "address": "8300 Arroyo Circle, Suite B-200", "address2": "Gilroy Premium Outlets", "city": "Gilroy", "state": "CA", "zip_code": "95020", "country": "US", "phone_number": "1-408-847-5666", "latitude": "37.0216699", "longitude": "-121.5606372", "store_hours": "Monday to Friday- 11:00am-7:00pm,Saturday- 11:00am-7:00pm,Sunday- 12:00pm-6:00pm"},
{"store_name": "Jockey Outlet", "store_number": 23, "store_uid": 52, "address": "28200 Hwy 189", "address2": "Lake Arrowhead Village", "city": "Lake Arrowhead", "state": "CA", "zip_code": "92352", "country": "US", "phone_number": "1-909-337-8813", "latitude": "34.248878", "longitude": "-117.189781", "store_hours": "Monday to Friday- 10:00am-5:30pm,Saturday- 10:00am-5:30pm,Sunday- 11:00am-5:00pm"},
{"store_name": "Jockey Outlet", "store_number": 101, "store_uid": 159, "address": "3228 Livermore Outlets Dr, Suite 675", "address2": "Livermore Premium Outlets-Temporarily Closed ", "city": "Livermore", "state": "CA", "zip_code": "94551", "country": "US", "phone_number": "1-925-243-9248", "latitude": "37.700645", "longitude": "-121.8427885", "store_hours": "Monday to Friday- 10:00am-9:00pm,Saturday- 10:00am-9:00pm,Sunday- 10:00am-7:00pm"},
{"store_name": "Jockey Outlet", "store_number": 37, "store_uid": 73, "address": "333 Five Cities Dr, Suite 116", "address2": " Pismo Beach Premium Outlets", "city": "Pismo Beach", "state": "CA", "zip_code": "93449", "country": "US", "phone_number": "1-805-773-8756", "latitude": "35.1354775", "longitude": "-120.627858", "store_hours": "Monday to Friday- 11:00am-7:00pm,Saturday- 11:00am-7:00pm,Sunday- 12:00pm-6:00pm"},
{"store_name": "Jockey Outlets", "store_number": 123, "store_uid": 173, "address": "101 W Avenida Vista Hermosa Suite 530", "address2": "Outlets at San Clemente", "city": "San Clemente", "state": "CA", "zip_code": "92672", "country": "US", "phone_number": "1-949-498-2393", "latitude": "33.4395379", "longitude": "-117.6279999", "store_hours": "Monday to Friday- 11:00am-7:00pm,Saturday- 11:00am-7:00pm,Sunday- 11:00am-7:00pm"},
{"store_name": "Jockey Outlet", "store_number": 7, "store_uid": 20, "address": "131 Nut Tree Rd Suite K", "address2": "Vacaville Premium Outlets", "city": "Vacaville", "state": "CA", "zip_code": "95687", "country": "US", "phone_number": "1-707-451-8119", "latitude": "38.36651", "longitude": "-121.957178", "store_hours": "Monday to Friday- 11:00am-7:00pm,Saturday- 11:00am-7:00pm,Sunday- 12:00pm-6:00pm"},
{"store_name": "Jockey Outlet", "store_number": 108, "store_uid": 28, "address": "5050 Factory Shop Blvd Suite 150", "address2": "Outlets at Castle Rock", "city": "Castle Rock", "state": "CO", "zip_code": "80108", "country": "US", "phone_number": "1-303-660-0880", "latitude": "39.4156625", "longitude": "-104.8734005", "store_hours": "Monday to Friday- 11:00am-7:00pm,Saturday- 11:00am-7:00pm,Sunday- 12:00pm-6:00pm"},
{"store_name": "Jockey Outlet", "store_number": 19, "store_uid": 39, "address": "125B Stephens Way", "address2": "Outlets at Silverthorne", "city": "Silverthorne", "state": "CO", "zip_code": "80498", "country": "US", "phone_number": "1-970-262-1643", "latitude": "39.6272838", "longitude": "-106.0674163", "store_hours": "Monday to Friday- 12:00am-5:30pm,Saturday- 11:00am-6:00pm,Sunday- 11:00pm-6:00pm"},
{"store_name": "Jockey Outlet", "store_number": 8, "store_uid": 21, "address": "36494 Seaside Drive, Suite 1445", "address2": "Tanger Outlets/Rehoboth", "city": "Rehoboth Beach", "state": "DE", "zip_code": "19971", "country": "US", "phone_number": "1-302-227-4255", "latitude": "38.5633653", "longitude": "-75.0969495", "store_hours": "Monday to Friday- 11:00am-7:00pm,Saturday- 11:00am-7:00pm,Sunday- 11:00am-7:00pm"},
{"store_name": "Jockey Outlet", "store_number": 52, "store_uid": 94, "address": "10406 Emerald Coast Parkway W., Suite 86B", "address2": "Silver Sands Premium Outlets", "city": "Destin", "state": "FL", "zip_code": "32541", "country": "US", "phone_number": "1-850-650-2909", "latitude": "30.3880836", "longitude": "-86.44541169999999", "store_hours": "Monday to Friday- 11:00am-7:00pm,Saturday- 11:00am-7:00pm,Sunday- 12:00pm-6:00pm"},
{"store_name": "Jockey Outlet", "store_number": 12, "store_uid": 26, "address": "5225 Factory Shop Blvd.", "address2": "Ellenton Premium Outlets", "city": "Ellenton", "state": "FL", "zip_code": "34222", "country": "US", "phone_number": "1-941-722-3166", "latitude": "27.5353387", "longitude": "-82.509311", "store_hours": "Monday to Friday- 11:00am-7:00pm,Saturday- 11:00am-7:00pm,Sunday- 12:00pm-6:00pm"},
{"store_name": "Jockey Outlet", "store_number": 71, "store_uid": 124, "address": "10801 Corkscrew Road, Suite 310", "address2": "Miromar Outlets", "city": "Estero", "state": "FL", "zip_code": "33928", "country": "US", "phone_number": "1-239-390-0660", "latitude": "26.4363567", "longitude": "-81.7783144", "store_hours": "Monday to Friday- 11:00am-7:00pm,Saturday- 11:00am-7:00pm,Sunday- 12:00pm-6:00pm"},
{"store_name": "Jockey Outlet", "store_number": 20, "store_uid": 42, "address": "20350 Summerlin Road", "address2": "Sanibel Outlets ", "city": "Ft. Myers", "state": "FL", "zip_code": "33908", "country": "US", "phone_number": "1-239-454-7977", "latitude": "26.494744", "longitude": "-81.97351089999999", "store_hours": "Monday to Friday- 11:00am-7:00pm,Saturday- 11:00am-7:00pm,Sunday- 12:00pm-6:00pm"},
{"store_name": "Jockey Outlet", "store_number": 129, "store_uid": 176, "address": "15765 State Road 535", "address2": "Lake Buena Vista Factory Stores", "city": "Orlando", "state": "FL", "zip_code": "32821", "country": "US", "phone_number": "1-407-605-0477", "latitude": "28.34937", "longitude": "-81.48964", "store_hours": "Monday to Friday- 11:00am-7:00pm,Saturday- 11:00am-7:00pm,Sunday- 12:00pm-6:00pm"},
{"store_name": "Jockey Outlet", "store_number": 4, "store_uid": 15, "address": "2700 Florida 16 #501", "address2": "St. Augustine Premium Outlets", "city": "St. Augustine", "state": "FL", "zip_code": "32092", "country": "US", "phone_number": "1-904-826-0337", "latitude": "29.924724", "longitude": "-81.417367", "store_hours": "Monday to Friday- 11:00am-7:00pm,Saturday- 11:00am-7:00pm,Sunday- 12:00pm-6:00pm"},
{"store_name": "Jockey Outlet", "store_number": 124, "store_uid": 172, "address": "2382 Grand Cypress Drive", "address2": "Tampa Premium Outlets", "city": "Tampa", "state": "FL", "zip_code": "33559", "country": "US", "phone_number": "1-813-949-7628", "latitude": "28.1902954", "longitude": "-82.39085050000001", "store_hours": "Monday to Friday- 11:00am-7:00pm,Saturday- 11:00am-7:00pm,Sunday- 12:00pm-6:00pm"},
{"store_name": "Jockey Outlet", "store_number": 32, "store_uid": 65, "address": "1716 94th Drive Suite G-120", "address2": "Vero Beach Outlets", "city": "Vero Beach", "state": "FL", "zip_code": "32966", "country": "US", "phone_number": "1-772-562-5304", "latitude": "27.6368315", "longitude": "-80.5220547", "store_hours": "Monday to Friday- 11:00am-6:00pm,Saturday- 11:00am-6:00pm,Sunday- 11:00am-6:00pm"},
{"store_name": "Jockey Outlet", "store_number": 114, "store_uid": 166, "address": "1781 Palm Beach Lakes Blvd, Suite W217", "address2": "Palm Beach Outlets", "city": "West Palm Beach", "state": "FL", "zip_code": "33401", "country": "US", "phone_number": "1-561-689-7646", "latitude": "26.725188", "longitude": "-80.0878268", "store_hours": "Monday to Friday- 11:00am-7:00pm,Saturday- 11:00am-7:00pm,Sunday- 12:00pm-6:00pm"},
{"store_name": "Jockey Outlet", "store_number": 47, "store_uid": 88, "address": "1000 Tanger Drive", "address2": "Tanger Outlets/Locust Grove", "city": "Locust Grove", "state": "GA", "zip_code": "30248", "country": "US", "phone_number": "1-770-914-8787", "latitude": "33.3483423", "longitude": "-84.12233329999999", "store_hours": "Monday to Friday- 11:00am-7:00pm,Saturday- 11:00am-7:00pm,Sunday- 11:00am-7:00pm"},
{"store_name": "Jockey Outlet", "store_number": 109, "store_uid": 162, "address": "915 Ridgewalk Parkway, Suite E-525", "address2": "Outlet Shoppes at Atlanta", "city": "Woodstock", "state": "GA", "zip_code": "30188", "country": "US", "phone_number": "1-678-445-8156", "latitude": "34.1201285", "longitude": "-84.526504", "store_hours": "Monday to Friday- 11:00am-7:00pm,Saturday- 11:00am-7:00pm,Sunday- 12:00pm-6:00pm"},
{"store_name": "Jockey Outlet", "store_number": 85, "store_uid": 143, "address": "1650 Premium Outlets Blvd, Suite 641", "address2": "Chicago Premium Outlets", "city": "Aurora", "state": "IL", "zip_code": "60502", "country": "US", "phone_number": "1-630-862-2970", "latitude": "41.8003748", "longitude": "-88.27394509999999", "store_hours": "Monday to Friday- 11:00am-7:00pm,Saturday- 11:00am-7:00pm,Sunday- 12:00pm-6:00pm"},
{"store_name": "Jockey Outlet", "store_number": 33, "store_uid": 67, "address": "D400 Tuscola Blvd. Suite E400", "address2": "Outlets at Tuscola", "city": "Tuscola", "state": "IL", "zip_code": "61953", "country": "US", "phone_number": "1-217-253-2066", "latitude": "39.7884172", "longitude": "-88.2668638", "store_hours": "Monday to Friday- 11:00am-7:00pm,Saturday- 11:00am-7:00pm,Sunday- 11:00am-5:00pm"},
{"store_name": "Jockey Outlet", "store_number": 35, "store_uid": 70, "address": "11961 N. Executive Dr, Suite A-50", "address2": "Edinburgh Premium Outlets", "city": "Edinburgh", "state": "IN", "zip_code": "46124", "country": "US", "phone_number": "1-812-526-6765", "latitude": "39.310948", "longitude": "-85.9641459", "store_hours": "Monday to Friday- 11:00am-7:00pm,Saturday- 11:00am-7:00pm,Sunday- 12:00pm-6:00pm"},
{"store_name": "Jockey Outlet", "store_number": 34, "store_uid": 69, "address": "6245 N. Old 27, Suite B-20", "address2": "The Outlet Shoppes at Fremont", "city": "Fremont", "state": "IN", "zip_code": "46737", "country": "US", "phone_number": "1-260-833-6779", "latitude": "41.73341", "longitude": "-85.00243", "store_hours": "Monday to Friday- 11:00am-7:00pm,Saturday- 11:00am-7:00pm,Sunday- 12:00pm-6:00pm"},
{"store_name": "Jockey Outlet", "store_number": 2, "store_uid": 7, "address": "507 Lighthouse Place", "address2": "Lighthouse Place Premium Outlets", "city": "Michigan City", "state": "IN", "zip_code": "46360", "country": "US", "phone_number": "1-219-872-5700", "latitude": "41.7148725", "longitude": "-86.9089506", "store_hours": "Monday to Friday- 11:00am-7:00pm,Saturday- 11:00am-7:00pm,Sunday- 12:00pm-6:00pm"},
{"store_name": "Jockey Outlet", "store_number": 17, "store_uid": 36, "address": "503 Tanger Drive", "address2": "Tanger Outlets/Williamsburg", "city": "Williamsburg", "state": "IA", "zip_code": "52361", "country": "US", "phone_number": "1-319-668-9524", "latitude": "41.67028", "longitude": "-92.01773", "store_hours": "Monday to Friday- 11:00am-6:00pm,Saturday- 11:00am-6:00pm,Sunday- 11:00am-5:00pm"},
{"store_name": "Jockey Outlet", "store_number": 80, "store_uid": 137, "address": "1811 Village West Parkway", "address2": "Legends Outlets", "city": "Kansas City", "state": "KS", "zip_code": "66111", "country": "US", "phone_number": "1-913-334-4455", "latitude": "39.1257925", "longitude": "-94.82436080000001", "store_hours": "Monday to Friday- 11:00am-7:00pm,Saturday- 11:00am-7:00pm,Sunday- 12:00pm-6:00pm"},
{"store_name": "Jockey Outlet", "store_number": 115, "store_uid": 167, "address": "1155 Buck Creek Road", "address2": "The Outlet Shoppes of the Bluegrass", "city": "Simpsonville", "state": "KY", "zip_code": "40067", "country": "US", "phone_number": "1-502-722-8353", "latitude": "38.2059819", "longitude": "-85.35153919999999", "store_hours": "Monday to Friday- 11:00am-7:00pm,Saturday- 11:00am-7:00pm,Sunday- 12:00pm-6:00pm"},
{"store_name": "Jockey Outlet", "store_number": 59, "store_uid": 108, "address": "100 Main Street", "address2": "Freeport Maine Outlets", "city": "Freeport", "state": "ME", "zip_code": "04032", "country": "US", "phone_number": "1-207-865-4224", "latitude": "43.857573", "longitude": "-70.102365", "store_hours": "Monday to Friday- 11:00am-7:00pm,Saturday- 11:00am-7:00pm,Sunday- 11:00am-7:00pm"},
{"store_name": "Jockey Outlet", "store_number": 48, "store_uid": 90, "address": "345 US Route 1", "address2": "Kittery Premium Outlets", "city": "Kittery", "state": "ME", "zip_code": "03904", "country": "US", "phone_number": "1-207-439-8221", "latitude": "43.116151", "longitude": "-70.730311", "store_hours": "Wed-Sat 11am-6pm\r\nSun 12pm-5pm\r\nMon & Tues CLOSED"},
{"store_name": "Jockey Outlet", "store_number": 63, "store_uid": 112, "address": "135 Premium Outlets Blvd.", "address2": "Hagerstown Premium Outlets", "city": "Hagerstown", "state": "MD", "zip_code": "21740", "country": "US", "phone_number": "1-301-766-4770", "latitude": "39.60985", "longitude": "-77.72984", "store_hours": "Wed-Sun 11a-6p\r\nMon & Tues CLOSED"},
{"store_name": "Jockey Outlet", "store_number": 112, "store_uid": 165, "address": "6800 Oxon Hill Road, Suite 630 ", "address2": "Tanger Outlets/National Harbor", "city": "National Harbor", "state": "MD", "zip_code": "20745", "country": "US", "phone_number": "1-301-567-1239", "latitude": "38.7948488", "longitude": "-77.0014573", "store_hours": "Monday to Friday- 11:00am-7:00pm,Saturday- 11:00am-7:00pm,Sunday- 11:00am-7:00pm"},
{"store_name": "Jockey Outlet", "store_number": 57, "store_uid": 106, "address": "520 Premium Outlets Blvd.", "address2": "Lee Premium Outlets", "city": "Lee", "state": "MA", "zip_code": "01238", "country": "US", "phone_number": "1-413-243-4440", "latitude": "42.30351", "longitude": "-73.24225", "store_hours": "Monday to Friday- 11:00am-7:00pm,Saturday- 11:00am-7:00pm,Sunday- 12:00pm-6:00pm"},
{"store_name": "Jockey Outlet", "store_number": 61, "store_uid": 110, "address": "One Premium Outlets Blvd, Suite 750", "address2": "Wrentham Village Premium Outlets", "city": "Wrentham", "state": "MA", "zip_code": "02093", "country": "US", "phone_number": "1-508-384-1199", "latitude": "42.036898", "longitude": "-71.3531504", "store_hours": "Monday to Friday- 11:00am-7:00pm,Saturday- 11:00am-7:00pm,Sunday- 12:00pm-6:00pm"},
{"store_name": "Jockey Outlet", "store_number": 3, "store_uid": 9, "address": "8825 Marketplace Drive, Suite H10", "address2": " Birch Run Premium Outlets", "city": "Birch Run", "state": "MI", "zip_code": "48855", "country": "US", "phone_number": "1-989-624-4404", "latitude": "43.24522", "longitude": "-83.77793", "store_hours": "Monday to Friday- 11:00am-7:00pm,Saturday- 11:00am-7:00pm,Sunday- 12:00pm-6:00pm"},
{"store_name": "Jockey Outlet", "store_number": 55, "store_uid": 100, "address": "1475 N. Burkhart Road Suite G-280", "address2": "Tanger Outlets/Howell", "city": "Howell", "state": "MI", "zip_code": "48855", "country": "US", "phone_number": "1-517-545-8672", "latitude": "42.6226578", "longitude": "-83.99881119999999", "store_hours": "Sun-Tues 11a-7p\r\nThurs-Sat 11a-7p\r\nWed CLOSED"},
{"store_name": "Jockey Outlet", "store_number": 69, "store_uid": 120, "address": "6415 LaBeaux Avenue NE, Suite B-190", "address2": "Albertville Premium Outlets", "city": "Albertville", "state": "MN", "zip_code": "55301", "country": "US", "phone_number": "1-763-497-3435", "latitude": "45.246703", "longitude": "-93.6692029", "store_hours": "Monday to Friday- 11:00am-7:00pm,Saturday- 11:00am-7:00pm,Sunday- 12:00pm-6:00pm"},
{"store_name": "Jockey Outlet", "store_number": 117, "store_uid": 169, "address": "3965 Eagan Outlets Parkway", "address2": "Twin Cities Premium Outlets", "city": "Eagan", "state": "MN", "zip_code": "55122", "country": "US", "phone_number": "1-651-454-5060", "latitude": "44.8154153", "longitude": "-93.2147423", "store_hours": "Monday to Friday- 11:00am-7:00pm,Saturday- 11:00am-7:00pm,Sunday- 12:00pm-6:00pm"},
{"store_name": "Jockey Outlet", "store_number": 36, "store_uid": 72, "address": "300 Tanger Blvd, Suite 207", "address2": "Tanger Outlets/Branson", "city": "Branson", "state": "MO", "zip_code": "65616", "country": "US", "phone_number": "1-417-335-6186", "latitude": "36.64561", "longitude": "-93.264291", "store_hours": "Monday to Friday- 11:00am-7:00pm,Saturday- 11:00am-7:00pm,Sunday- 11:00am-7:00pm"},
{"store_name": "Jockey Outlet", "store_number": 111, "store_uid": 164, "address": "18511 Outlet Blvd, Suite 845", "address2": "St. Louis Premium Outlets", "city": "Chesterfield", "state": "MO", "zip_code": "63005", "country": "US", "phone_number": "1-636-778-2424 ", "latitude": "38.6768772", "longitude": "-90.6612214", "store_hours": "Monday to Friday- 11:00am-7:00pm,Saturday- 11:00am-7:00pm,Sunday- 12:00pm-6:00pm"},
{"store_name": "Jockey Outlet", "store_number": 9, "store_uid": 22, "address": "4540 Osage Beach Parkway, Suite N-5", "address2": "Osage Beach Premium Outlets", "city": "Osage Beach", "state": "MO", "zip_code": "65065", "country": "US", "phone_number": "1-573-348-4220", "latitude": "38.1435519", "longitude": "-92.6311022", "store_hours": "Monday to Friday- 11:00am-7:00pm,Saturday- 11:00am-7:00pm,Sunday- 12:00pm-6:00pm"},
{"store_name": "Jockey Outlet", "store_number": 53, "store_uid": 95, "address": "7400 Las Vegas Blvd S", "address2": "Las Vegas Premium Outlets-South", "city": "Las Vegas", "state": "NV", "zip_code": "89123", "country": "US", "phone_number": "1-702-896-6602", "latitude": "36.0525016", "longitude": "-115.1689034", "store_hours": "Monday to Friday- 11:00am-7:00pm,Saturday- 11:00am-7:00pm,Sunday- 12:00pm-6:00pm"},
{"store_name": "Jockey Outlet", "store_number": 75, "store_uid": 129, "address": "875 South Grand Central Parkway", "address2": "Las Vegas Premium Outlets-North", "city": "Las Vegas", "state": "NV", "zip_code": "89106", "country": "US", "phone_number": "1-702-384-2123", "latitude": "36.1632104", "longitude": "-115.1588086", "store_hours": "Monday to Friday- 11:00am-7:00pm,Saturday- 11:00am-7:00pm,Sunday- 12:00pm-6:00pm"},
{"store_name": "Jockey Outlet", "store_number": 97, "store_uid": 157, "address": "80 Premium Outlets Blvd, Suite 621", "address2": "Merrimack Premium Outlets", "city": "Merrimack", "state": "NH", "zip_code": "03054", "country": "US", "phone_number": "1-603-424-7270", "latitude": "42.826505", "longitude": "-71.50052", "store_hours": "Monday to Friday- 11:00am-7:00pm,Saturday- 11:00am-7:00pm,Sunday- 12:00pm-6:00pm"},
{"store_name": "Jockey Outlet", "store_number": 26, "store_uid": 55, "address": "2 Common Court, Unit # D14", "address2": "Settlers Green Outlet Village", "city": "North Conway", "state": "NH", "zip_code": "03860", "country": "US", "phone_number": "1-603-356-0208", "latitude": "44.022743", "longitude": "-71.112957", "store_hours": "Wed-Sat 11am-6p\r\nSun 12pm-5pm\r\nCLOSED Mon & Tues\r\n"},
{"store_name": "Jockey Outlet", "store_number": 28, "store_uid": 57, "address": "120 Laconia Road", "address2": "Tanger Outlets/Tilton", "city": "Tilton", "state": "NH", "zip_code": "03276", "country": "US", "phone_number": "1-603-286-9420", "latitude": "43.459272", "longitude": "-71.562109", "store_hours": "Monday to Friday- 11:00am-7:00pm,Saturday- 11:00am-7:00pm,Sunday- 11:00am-7:00pm"},
{"store_name": "Jockey Outlet", "store_number": 122, "store_uid": 171, "address": "100 Premium Outlets Drive", "address2": "Gloucester Premium Outlets", "city": "Blackwood", "state": "NJ", "zip_code": "08012", "country": "US", "phone_number": "1-856-302-4584", "latitude": "39.7848289", "longitude": "-75.05286289999999", "store_hours": "Monday to Friday- 11:00am-7:00pm,Saturday- 11:00am-7:00pm,Sunday- 12:00pm-6:00pm"},
{"store_name": "Jockey Outlet", "store_number": 58, "store_uid": 107, "address": "537 Monmouth Road, Suite 144", "address2": "Jackson Premium Outlets", "city": "Jackson", "state": "NJ", "zip_code": "08527", "country": "US", "phone_number": "1-732-928-2860", "latitude": "40.162843", "longitude": "-74.420072", "store_hours": "Monday to Friday- 11:00am-7:00pm,Saturday- 11:00am-7:00pm,Sunday- 12:00pm-6:00pm"},
{"store_name": "Jockey Outlet", "store_number": 90, "store_uid": 148, "address": "1 Premium Outlets Blvd, Suite 705", "address2": "Jersey Shore Premium Outlets", "city": "Tinton Falls", "state": "NJ", "zip_code": "07753", "country": "US", "phone_number": "1-732-493-1002", "latitude": "40.2232661", "longitude": "-74.0968254", "store_hours": "Monday to Friday- 11:00am-7:00pm,Saturday- 11:00am-7:00pm,Sunday- 12:00pm-6:00pm"},
{"store_name": "Jockey Outlet", "store_number": 16, "store_uid": 30, "address": "640 Bluebird Ct", "address2": "Woodbury Common Premium Outlets", "city": "Central Valley", "state": "NY", "zip_code": "10917", "country": "US", "phone_number": "1-845-928-4527", "latitude": "41.315174", "longitude": "-74.125913", "store_hours": "Monday to Friday- 11:00am-7:00pm,Saturday- 11:00am-7:00pm,Sunday- 12:00pm-6:00pm"},
{"store_name": "Jockey Outlet", "store_number": 96, "store_uid": 156, "address": "455 Commack Road, Suite 1215", "address2": "Tanger Outlets At The Arches", "city": "Deer Park", "state": "NY", "zip_code": "11729", "country": "US", "phone_number": "1-631-274-4969", "latitude": "40.7631926", "longitude": "-73.3120811", "store_hours": "Monday to Friday- 11:00am-7:00pm,Saturday- 11:00am-7:00pm,Sunday- 11:00am-7:00pm"},
{"store_name": "Jockey Outlet", "store_number": 70, "store_uid": 123, "address": "1439 State Rte.9", "address2": "French Mountain Commons", "city": "Lake George", "state": "NY", "zip_code": "12845", "country": "US", "phone_number": "1-518-761-0965", "latitude": "43.3654629", "longitude": "-73.7013525", "store_hours": "Monday to Friday- 10:00am-6:00pm,Saturday- 10:00am-6:00pm,Sunday- 10:00am-6:00pm"},
{"store_name": "Jockey Outlet", "store_number": 24, "store_uid": 53, "address": "1770 West Main Street", "address2": "Tanger Outlets/Riverhead", "city": "Riverhead", "state": "NY", "zip_code": "11901", "country": "US", "phone_number": "1-631-727-4773", "latitude": "40.9202403", "longitude": "-72.7201653", "store_hours": "Monday to Friday- 11:00am-7:00pm,Saturday- 11:00am-7:00pm,Sunday- 11:00am-7:00pm"},
{"store_name": "Jockey Outlet", "store_number": 128, "store_uid": 400, "address": "35B Richmond Terrace, Suite 336", "address2": "Jockey at Empire Outlets- Temporarily Closed", "city": "Staten Island", "state": "NY", "zip_code": "10301", "country": "US", "phone_number": "917-935-4350", "latitude": "40.64363", "longitude": "-74.07732", "store_hours": "Monday to Friday- 10:00am-9:00pm,Saturday- 10:00am-9:00pm,Sunday- 10:00am-6:00pm"},
{"store_name": "Jockey Outlet", "store_number": 40, "store_uid": 76, "address": "655 Route 318, Suite 51", "address2": "Waterloo Premium Outlets", "city": "Waterloo", "state": "NY", "zip_code": "013165", "country": "US", "phone_number": "1-315-539-6037", "latitude": "42.9551565", "longitude": "-76.9231005", "store_hours": "Monday to Friday- 11:00am-7:00pm,Saturday- 11:00am-7:00pm,Sunday- 12:00pm-6:00pm"},
{"store_name": "Jockey Outlet", "store_number": 60, "store_uid": 109, "address": "310 Shoppes on the Parkway Rd, Suite 26", "address2": "Tanger Outlets/Blowing Rock", "city": "Blowing Rock", "state": "NC", "zip_code": "28605", "country": "US", "phone_number": "1-828-295-0130", "latitude": "36.141151", "longitude": "-81.671271", "store_hours": "Monday to Friday- 11:00am-7:00pm,Saturday- 11:00am-7:00pm,Sunday- 11:00am-7:00pm"},
{"store_name": "Jockey Outlet", "store_number": 116, "store_uid": 168, "address": "5404 New Fashion Way", "address2": "Charlotte Premium Outlets", "city": "Charlotte", "state": "NC", "zip_code": "28278", "country": "US", "phone_number": "1-704-587-0429", "latitude": "35.1686285", "longitude": "-80.9720633", "store_hours": "Monday to Friday- 11:00am-7:00pm,Saturday- 11:00am-7:00pm,Sunday- 12:00pm-6:00pm"},
{"store_name": "Jockey Outlet", "store_number": 93, "store_uid": 153, "address": "4000 Arrowhead Blvd, Suite 530", "address2": "Tanger Outlets/Mebane", "city": "Mebane", "state": "NC", "zip_code": "27302", "country": "US", "phone_number": "1-919-304-3043", "latitude": "36.0741815", "longitude": "-79.2659932", "store_hours": "Monday to Friday- 11:00am-7:00pm,Saturday- 11:00am-7:00pm,Sunday- 11:00am-7:00pm"},
{"store_name": "Jockey Outlet", "store_number": 25, "store_uid": 54, "address": "1025 Industrial Park Dr, Suite 320", "address2": "Carolina Premium Outlets", "city": "Smithfield", "state": "NC", "zip_code": "27577", "country": "US", "phone_number": "1-919-989-7676", "latitude": "35.5097142", "longitude": "-78.31395309999999", "store_hours": "Monday to Friday- 11:00am-7:00pm,Saturday- 11:00am-7:00pm,Sunday- 12:00pm-6:00pm"},
{"store_name": "Jockey Outlet", "store_number": 10, "store_uid": 24, "address": "8625 Factory Shops Blvd.", "address2": "Tanger Outlets/Jeffersonville", "city": "Jeffersonville", "state": "OH", "zip_code": "43128", "country": "US", "phone_number": "1-740-948-2650", "latitude": "39.6210669", "longitude": "-83.60117", "store_hours": "Monday to Friday- 11:00am-7:00pm,Saturday- 11:00am-7:00pm,Sunday- 11:00am-7:00pm"},
{"store_name": "Jockey Outlet", "store_number": 91, "store_uid": 149, "address": "807 Premium Outlet Drive", "address2": "Cincinnati Premium Outlets", "city": "Monroe", "state": "OH", "zip_code": "45050", "country": "US", "phone_number": "1-513-539-8502", "latitude": "39.4351924", "longitude": "-84.3380552", "store_hours": "Monday to Friday- 11:00am-7:00pm,Saturday- 11:00am-7:00pm,Sunday- 12:00pm-5:00pm"},
{"store_name": "Jockey Outlet", "store_number": 126, "store_uid": 174, "address": "400 South Wilson Road Suite 840", "address2": "Tanger Outlets Columbus", "city": "Sunbury", "state": "OH", "zip_code": "43074", "country": "US", "phone_number": "1-740-965-4057", "latitude": "40.2599751", "longitude": "-82.9243159", "store_hours": "Monday to Friday- 11:00am-7:00pm,Saturday- 11:00am-7:00pm,Sunday- 11:00am-7:00pm"},
{"store_name": "Jockey Outlet", "store_number": 54, "store_uid": 98, "address": "1500 SE E. Devils Lake Rd", "address2": "Tanger Outlets/Lincoln City", "city": "Lincoln City", "state": "OR", "zip_code": "97367", "country": "US", "phone_number": "1-541-996-4577", "latitude": "44.959245", "longitude": "-124.012357", "store_hours": "Monday to Friday- 11:00am-7:00pm,Saturday- 11:00am-7:00pm,Sunday- 11:00am-7:00pm"},
{"store_name": "Jockey Outlet", "store_number": 31, "store_uid": 63, "address": "450 N.W. 257th Way", "address2": "Columbia Gorge Premium Outlets", "city": "Troutdale", "state": "OR", "zip_code": "97060", "country": "US", "phone_number": "1-503-666-5914", "latitude": "45.543452", "longitude": "-122.390361", "store_hours": "Monday to Friday- 11:00am-7:00pm,Saturday- 11:00am-7:00pm,Sunday- 12:00pm-6:00pm"},
{"store_name": "Jockey Outlet", "store_number": 66, "store_uid": 115, "address": "1001 Arney Rd, Suite 1014", "address2": "Woodburn Premium Outlets", "city": "Woodburn", "state": "OR", "zip_code": "97071", "country": "US", "phone_number": "1-503-981-9887", "latitude": "45.1561405", "longitude": "-122.878519", "store_hours": "Monday to Friday- 11:00am-7:00pm,Saturday- 11:00am-7:00pm,Sunday- 12:00pm-6:00pm"},
{"store_name": "Jockey Outlet", "store_number": 27, "store_uid": 56, "address": "1911 Leesburg Grove City Rd", "address2": " Grove City Premium Outlets", "city": "Grove City", "state": "PA", "zip_code": "16137", "country": "US", "phone_number": "1-724-748-3532", "latitude": "41.1409027", "longitude": "-80.1574239", "store_hours": "Monday to Friday- 11:00am-7:00pm,Saturday- 11:00am-7:00pm,Sunday- 12:00am-6:00pm"},
{"store_name": "Jockey Outlet", "store_number": 43, "store_uid": 82, "address": "159 Outlet Square", "address2": "Tanger Outlets/Hershey", "city": "Hershey", "state": "PA", "zip_code": "017033", "country": "US", "phone_number": "1-717-520-0880", "latitude": "40.296001", "longitude": "-76.64584099999999", "store_hours": "Monday to Friday- 11:00am-7:00pm,Saturday- 11:00am-7:00pm,Sunday- 11:00am-7:00pm"},
{"store_name": "Jockey Outlet", "store_number": 113, "store_uid": 25, "address": "308 Stanley K Tanger Blvd", "address2": "Tanger Outlets/Lancaster", "city": "Lancaster", "state": "PA", "zip_code": "17602", "country": "US", "phone_number": "1-717-399-9460", "latitude": "40.025878", "longitude": "-76.2231104", "store_hours": "Monday to Friday- 11:00am-7:00pm,Saturday- 11:00am-7:00pm,Sunday- 11:00am-7:00pm"},
{"store_name": "Jockey Outlet", "store_number": 88, "store_uid": 146, "address": "18 West Lightcap Road, Suite 1083", "address2": "Philadelphia Premium Outlets", "city": "Limerick", "state": "PA", "zip_code": "19464", "country": "US", "phone_number": "1-610-323-5599", "latitude": "40.2364304", "longitude": "-75.5696988", "store_hours": "Monday to Friday- 11:00am-7:00pm,Saturday- 11:00am-7:00pm,Sunday- 12:00am-6:00pm"},
{"store_name": "Jockey Outlet", "store_number": 44, "store_uid": 84, "address": "1000 Crossing Outlet Square, Suite G-8", "address2": "The Crossings Premium Outlets", "city": "Tannersville", "state": "PA", "zip_code": "018372", "country": "US", "phone_number": "1-570-620-2125", "latitude": "41.05406", "longitude": "-75.36063", "store_hours": "Monday to Friday- 11:00am-7:00pm,Saturday- 11:00am-7:00pm,Sunday- 12:00pm-6:00pm"},
{"store_name": "Jockey Outlet", "store_number": 95, "store_uid": 155, "address": "1254 Fording Island Rd, Suite 225", "address2": "Tanger Outlets/Hilton Head", "city": "Bluffton", "state": "SC", "zip_code": "29910", "country": "US", "phone_number": "1-843-815-3090", "latitude": "32.2450146", "longitude": "-80.83281789999999", "store_hours": "Monday to Friday- 11:00am-7:00pm,Saturday- 11:00am-7:00pm,Sunday- 11:00am-7:00pm"},
{"store_name": "Jockey Outlet", "store_number": 42, "store_uid": 80, "address": "4630 Factory Stores Blvd", "address2": "Tanger Outlets/Myrtle Beach- Hwy 501", "city": "Myrtle Beach", "state": "SC", "zip_code": "29579", "country": "US", "phone_number": "1-843-588-1110", "latitude": "33.7509199", "longitude": "-78.9593382", "store_hours": "Monday to Friday- 11:00am-7:00pm,Saturday- 11:00am-7:00pm,Sunday- 11:00am-7:00pm"},
{"store_name": "Jockey Outlet", "store_number": 73, "store_uid": 126, "address": "10839 Kings Rd, Suite 758", "address2": "Tanger Outlets/Myrtle Beach- Hwy 17", "city": "North Myrtle Beach", "state": "SC", "zip_code": "29572", "country": "US", "phone_number": "1-843-497-1128", "latitude": "33.7842551", "longitude": "-78.7747123", "store_hours": "Monday to Friday- 11:00am-7:00pm,Saturday- 11:00am-7:00pm,Sunday- 11:00am-7:00pm"},
{"store_name": "Jockey Outlet", "store_number": 103, "store_uid": 128, "address": "1645 Parkway, Suite 1350", "address2": "Tanger Outlets/Sevierville", "city": "Sevierville", "state": "TN", "zip_code": "37862", "country": "US", "phone_number": "1-865-774-1413", "latitude": "35.831499", "longitude": "-83.567357", "store_hours": "Monday to Friday- 11:00am-7:00pm,Saturday- 11:00am-7:00pm,Sunday- 11:00am-7:00pm"},
{"store_name": "Jockey Outlet", "store_number": 79, "store_uid": 136, "address": "820 West Stacy Road, Suite 312", "address2": "Allen Premium Outlets", "city": "Allen", "state": "TX", "zip_code": "75013", "country": "US", "phone_number": "1-972-678-4990", "latitude": "33.133338", "longitude": "-96.659978", "store_hours": "Monday to Friday- 11:00am-7:00pm,Saturday- 11:00am-7:00pm,Sunday- 12:00pm-6:00pm"},
{"store_name": "Jockey Outlet", "store_number": 94, "store_uid": 154, "address": "29300 Hempstead Rd, Suite 1208", "address2": "Houston Premium Outlets", "city": "Cypress", "state": "TX", "zip_code": "77433", "country": "US", "phone_number": "1-281-256-0288", "latitude": "29.9970392", "longitude": "-95.7574674", "store_hours": "Monday to Friday- 11:00am-7:00pm,Saturday- 11:00am-7:00pm,Sunday- 12:00pm-6:00pm"},
{"store_name": "Jockey Outlet", "store_number": 83, "store_uid": 141, "address": "4401 North 1 H-35, Suite 717", "address2": "Round Rock Premium Outlets", "city": "Round Rock", "state": "TX", "zip_code": "78664", "country": "US", "phone_number": "1-512-868-2900", "latitude": "30.5655691", "longitude": "-97.69033899999999", "store_hours": "Monday to Friday- 11:00am-7:00pm,Saturday- 11:00am-7:00pm,Sunday- 12:00pm-6:00pm"},
{"store_name": "Jockey Outlet", "store_number": 13, "store_uid": 27, "address": "3939 Interstate 35 S", "address2": " San Marcos Premium Outlets", "city": "San Marcos", "state": "TX", "zip_code": "78666", "country": "US", "phone_number": "1-512-392-2960", "latitude": "29.829498", "longitude": "-97.9844077", "store_hours": "Monday to Friday- 11:00am-7:00pm,Saturday- 11:00am-7:00pm,Sunday- 12:00pm-6:00pm"},
{"store_name": "Jockey Outlet", "store_number": 30, "store_uid": 60, "address": "301 Tanger Drive", "address2": "Tanger Outlets/Terrell", "city": "Terrell", "state": "TX", "zip_code": "75160", "country": "US", "phone_number": "1-972-524-1219", "latitude": "32.7023387", "longitude": "-96.2856747", "store_hours": "Monday to Friday- 11:00am-7:00pm,Saturday- 11:00am-7:00pm,Sunday- 11:00am-7:00pm"},
{"store_name": "Jockey Outlet", "store_number": 51, "store_uid": 93, "address": "21 Essex Way", "address2": "Essex Outlets", "city": "Essex Junction", "state": "VT", "zip_code": "05452", "country": "US", "phone_number": "1-802-879-4655", "latitude": "44.5069626", "longitude": "-73.08236889999999", "store_hours": "Wed-Sat 11a-6p\r\nSun 12p-5p\r\nMon & Tues CLOSED\r\n"},
{"store_name": "Jockey Outlet", "store_number": 62, "store_uid": 111, "address": "367 Depot Street", "address2": "Equinox Plaza", "city": "Manchester", "state": "VT", "zip_code": "05255", "country": "US", "phone_number": "1-802-362-3555", "latitude": "43.174708", "longitude": "-73.050235", "store_hours": "Wed- Sat 11a-6p\r\nSun 12p-5p\r\nMon & Tues CLOSED"},
{"store_name": "Jockey Outlet", "store_number": 65, "store_uid": 114, "address": "241 Fort Evans Rd, Suite 713", "address2": "Leesburg Corner Premium Outlets", "city": "Leesburg", "state": "VA", "zip_code": "20176", "country": "US", "phone_number": "1-703-771-9530", "latitude": "39.1068102", "longitude": "-77.53833829999999", "store_hours": "Monday to Friday- 11:00am-7:00pm,Saturday- 11:00am-7:00pm,Sunday- 12:00pm-6:00pm"},
{"store_name": "Jockey Outlet", "store_number": 68, "store_uid": 119, "address": "5699-32 Richmond Rd", "address2": " Williamsburg Premium Outlets", "city": "Williamsburg", "state": "VA", "zip_code": "23188", "country": "US", "phone_number": "1-757-565-6380", "latitude": "37.3185436", "longitude": "-76.73602260000001", "store_hours": "Monday to Friday- 11:00am-7:00pm,Saturday- 11:00am-7:00pm,Sunday- 12:00pm-6:00pm"},
{"store_name": "Jockey Outlet", "store_number": 38, "store_uid": 74, "address": "521 S. Fork Ave SW, Suite 461-H", "address2": "North Bend Premium Outlets", "city": "North Bend", "state": "WA", "zip_code": "98045", "country": "US", "phone_number": "1-425-831-5995", "latitude": "47.4905457", "longitude": "-121.7943461", "store_hours": "Monday to Friday- 11:00am-7:00pm,Saturday- 11:00am-7:00pm,Sunday- 12:00pm-6:00pm"},
{"store_name": "Jockey Outlet", "store_number": 78, "store_uid": 133, "address": "10600 Quil Ceda Blvd, Suite 419A", "address2": "Seattle Premium Outlets", "city": "Tulalip", "state": "WA", "zip_code": "98271", "country": "US", "phone_number": "1-360-716-3281", "latitude": "48.0933737", "longitude": "-122.189811", "store_hours": "Monday to Friday- 11:00am-7:00pm,Saturday- 11:00am-7:00pm,Sunday- 12:00pm-6:00pm"},
{"store_name": "Jockey Outlet", "store_number": 1, "store_uid": 2, "address": "5500-6th Ave, Suite 100", "address2": "Jockey Factory Store", "city": "Kenosha", "state": "WI", "zip_code": "53140", "country": "US", "phone_number": "1-262-654-5737", "latitude": "42.5857455", "longitude": "-87.8211736", "store_hours": "Monday to Friday- 11:00am-5:00pm,Saturday- 11:00am-5:00pm,Sunday- 12:00am-5:00pm"},
{"store_name": "Jockey Outlet", "store_number": 18, "store_uid": 38, "address": "3001 S Washburn St, Suite E-40", "address2": "The Outlet Shoppes at Oshkosh", "city": "Oshkosh", "state": "WI", "zip_code": "54904", "country": "US", "phone_number": "1-920-426-2593", "latitude": "43.9834897", "longitude": "-88.5867012", "store_hours": "Monday to Friday- 11:00am-7:00pm,Saturday- 11:00am-7:00pm,Sunday- 12:00pm-6:00pm"},
{"store_name": "Jockey Outlet", "store_number": 77, "store_uid": 132, "address": "11211-120th Ave, Suite 17", "address2": "Pleasant Prairie Premium Outlets", "city": "Pleasant Prairie", "state": "WI", "zip_code": "53158", "country": "US", "phone_number": "1-262-857-3877", "latitude": "42.5160528", "longitude": "-87.94948629999999", "store_hours": "Monday to Friday- 11:00am-7:00pm,Saturday- 11:00am-7:00pm,Sunday- 12:00am-6:00pm"}
]