[
{"store_name": "Avon Park Rent King", "address": "810 US 27 S", "city": "Avon Park", "state": "FL", "zip_code": "33825", "latitude": "27.58789", "longitude": "-81.51457", "phone_number": "863-453-2400", "store_hours": "Mon: 11:00 AM - 7:00 PM, Tue: 11:00 AM - 7:00 PM, Wed: 11:00 AM - 7:00 PM, Thu: 11:00 AM - 7:00 PM, Fri: 11:00 AM - 7:00 PM, Sat: 11:00 AM - 6:00 PM, Sun: Closed"},
{"store_name": "Pinellas Park Rent King", "address": "6384 66th Street N.", "city": "Pinellas Park", "state": "FL", "zip_code": "33781", "latitude": "27.829819", "longitude": "-82.72896", "phone_number": "727-548-6700", "store_hours": "Mon: 11:00 AM - 7:00 PM, Tue: 11:00 AM - 7:00 PM, Wed: 11:00 AM - 7:00 PM, Thu: 11:00 AM - 7:00 PM, Fri: 11:00 AM - 7:00 PM, Sat: 11:00 AM - 6:00 PM, Sun: Closed"},
{"store_name": "New Port Richey Rent King", "address": "6107 SR 54", "city": "New Port Richey", "state": "FL", "zip_code": "34653", "latitude": "28.218555", "longitude": "-82.713776", "phone_number": "727-846-7400", "store_hours": "Mon: 11:00 AM - 7:00 PM, Tue: 11:00 AM - 7:00 PM, Wed: 11:00 AM - 7:00 PM, Thu: 11:00 AM - 7:00 PM, Fri: 11:00 AM - 7:00 PM, Sat: 11:00 AM - 6:00 PM, Sun: Closed"},
{"store_name": "Wauchula Rent King", "address": "1109 U.S. Hwy 17 South", "city": "Wauchula", "state": "FL", "zip_code": "33873", "latitude": "27.561504", "longitude": "-81.81487", "phone_number": "863-773-4009", "store_hours": "Mon: 11:00 AM - 7:00 PM, Tue: 11:00 AM - 7:00 PM, Wed: 11:00 AM - 7:00 PM, Thu: 11:00 AM - 7:00 PM, Fri: 11:00 AM - 7:00 PM, Sat: 11:00 AM - 6:00 PM, Sun: Closed"},
{"store_name": "North Tampa Rent King", "address": "2267 E. Bearss Ave.", "city": "Tampa", "state": "FL", "zip_code": "33613", "latitude": "28.081621", "longitude": "-82.4329", "phone_number": "813-910-4200", "store_hours": "Mon: 11:00 AM - 7:00 PM, Tue: 11:00 AM - 7:00 PM, Wed: 11:00 AM - 7:00 PM, Thu: 11:00 AM - 7:00 PM, Fri: 11:00 AM - 7:00 PM, Sat: 11:00 AM - 6:00 PM, Sun: Closed"},
{"store_name": "Temple Terrace Rent King", "address": "8727 Temple Terrace Highway", "city": "Temple Terrace", "state": "FL", "zip_code": "33637", "latitude": "28.030867", "longitude": "-82.3559", "phone_number": "813-988-5115", "store_hours": "Mon: 11:00 AM - 7:00 PM, Tue: 11:00 AM - 7:00 PM, Wed: 11:00 AM - 7:00 PM, Thu: 11:00 AM - 7:00 PM, Fri: 11:00 AM - 7:00 PM, Sat: 11:00 AM - 6:00 PM, Sun: Closed"},
{"store_name": "Winter Haven Rent King", "address": "2808 Recker Hwy", "city": "Winter Haven", "state": "FL", "zip_code": "33880", "latitude": "28.019163", "longitude": "-81.76476", "phone_number": "863-294-8180", "store_hours": "Mon: 11:00 AM - 7:00 PM, Tue: 11:00 AM - 7:00 PM, Wed: 11:00 AM - 7:00 PM, Thu: 11:00 AM - 7:00 PM, Fri: 11:00 AM - 7:00 PM, Sat: 11:00 AM - 6:00 PM, Sun: Closed"},
{"store_name": "Ruskin Rent King", "address": "615 US Hwy 41 South", "city": "Ruskin", "state": "FL", "zip_code": "33570", "latitude": "27.71359", "longitude": "-82.4345", "phone_number": "813-649-1960", "store_hours": "Mon: 11:00 AM - 7:00 PM, Tue: 11:00 AM - 7:00 PM, Wed: 11:00 AM - 7:00 PM, Thu: 11:00 AM - 7:00 PM, Fri: 11:00 AM - 7:00 PM, Sat: 11:00 AM - 6:00 PM, Sun: Closed"},
{"store_name": "Town N Country Rent King", "address": "7523 W. Hillsborough Ave.", "city": "Tampa", "state": "FL", "zip_code": "33615", "latitude": "27.998325", "longitude": "-82.56354", "phone_number": "813-889-9710", "store_hours": "Mon: 11:00 AM - 7:00 PM, Tue: 11:00 AM - 7:00 PM, Wed: 11:00 AM - 7:00 PM, Thu: 11:00 AM - 7:00 PM, Fri: 11:00 AM - 7:00 PM, Sat: 11:00 AM - 6:00 PM, Sun: Closed"},
{"store_name": "Largo Rent King", "address": "11902 Seminole Blvd.", "city": "Largo", "state": "FL", "zip_code": "33778", "latitude": "27.8804", "longitude": "-82.78874", "phone_number": "727-559-0559", "store_hours": "Mon: 11:00 AM - 7:00 PM, Tue: 11:00 AM - 7:00 PM, Wed: 11:00 AM - 7:00 PM, Thu: 11:00 AM - 7:00 PM, Fri: 11:00 AM - 7:00 PM, Sat: 11:00 AM - 6:00 PM, Sun: Closed"},
{"store_name": "Lake Wales Rent King", "address": "1960 SR 60 East", "city": "Lake Wales", "state": "FL", "zip_code": "33853", "latitude": "27.892109", "longitude": "-81.5578", "phone_number": "863-678-1929", "store_hours": "Mon: 11:00 AM - 7:00 PM, Tue: 11:00 AM - 7:00 PM, Wed: 11:00 AM - 7:00 PM, Thu: 11:00 AM - 7:00 PM, Fri: 11:00 AM - 7:00 PM, Sat: 11:00 AM - 6:00 PM, Sun: Closed"},
{"store_name": "Lakeland Rent King", "address": "2610 US Hwy 92 East", "city": "Lakeland", "state": "FL", "zip_code": "33801", "latitude": "28.049204", "longitude": "-81.90769", "phone_number": "863-802-1928", "store_hours": "Mon: 11:00 AM - 7:00 PM, Tue: 11:00 AM - 7:00 PM, Wed: 11:00 AM - 7:00 PM, Thu: 11:00 AM - 7:00 PM, Fri: 11:00 AM - 7:00 PM, Sat: 11:00 AM - 6:00 PM, Sun: Closed"},
{"store_name": "Clair Mel Rent King", "address": "7466 Palm River Road", "city": "Tampa", "state": "FL", "zip_code": "33619", "latitude": "27.942356", "longitude": "-82.37178", "phone_number": "813-630-9399", "store_hours": "Mon: 11:00 AM - 7:00 PM, Tue: 11:00 AM - 7:00 PM, Wed: 11:00 AM - 7:00 PM, Thu: 11:00 AM - 7:00 PM, Fri: 11:00 AM - 7:00 PM, Sat: 11:00 AM - 6:00 PM, Sun: Closed"},
{"store_name": "Riverview Rent King", "address": "10431 Gibsonton Drive", "city": "Riverview", "state": "FL", "zip_code": "33569", "latitude": "27.856718", "longitude": "-82.33165", "phone_number": "813-672-1988", "store_hours": "Mon: 11:00 AM - 7:00 PM, Tue: 11:00 AM - 7:00 PM, Wed: 11:00 AM - 7:00 PM, Thu: 11:00 AM - 7:00 PM, Fri: 11:00 AM - 7:00 PM, Sat: 11:00 AM - 6:00 PM, Sun: Closed"},
{"store_name": "Haines City Rent King", "address": "500 E. Hinson Avenue", "city": "Haines City", "state": "FL", "zip_code": "33844", "latitude": "28.106955", "longitude": "-81.627014", "phone_number": "863-419-1111", "store_hours": "Mon: 11:00 AM - 7:00 PM, Tue: 11:00 AM - 7:00 PM, Wed: 11:00 AM - 7:00 PM, Thu: 11:00 AM - 7:00 PM, Fri: 11:00 AM - 7:00 PM, Sat: 11:00 AM - 6:00 PM, Sun: Closed"},
{"store_name": "Brandon Rent King", "address": "621 W. Brandon Blvd.", "city": "Brandon", "state": "FL", "zip_code": "33511", "latitude": "27.936342", "longitude": "-82.29338", "phone_number": "813-685-6400", "store_hours": "Mon: 11:00 AM - 7:00 PM, Tue: 11:00 AM - 7:00 PM, Wed: 11:00 AM - 7:00 PM, Thu: 11:00 AM - 7:00 PM, Fri: 11:00 AM - 7:00 PM, Sat: 11:00 AM - 6:00 PM, Sun: Closed"},
{"store_name": "Central Tampa / Ybor Rent King", "address": "2726 Nebraska Ave.", "city": "Tampa", "state": "FL", "zip_code": "33602", "latitude": "27.96715", "longitude": "-82.451485", "phone_number": "813-223-9109", "store_hours": "Mon: 11:00 AM - 7:00 PM, Tue: 11:00 AM - 7:00 PM, Wed: 11:00 AM - 7:00 PM, Thu: 11:00 AM - 7:00 PM, Fri: 11:00 AM - 7:00 PM, Sat: 11:00 AM - 6:00 PM, Sun: Closed"},
{"store_name": "Bradenton Rent King", "address": "4615 14th St W", "city": "Bradenton", "state": "FL", "zip_code": "34207", "latitude": "27.457602", "longitude": "-82.57471", "phone_number": "941-758-9559", "store_hours": "Mon: 11:00 AM - 7:00 PM, Tue: 11:00 AM - 7:00 PM, Wed: 11:00 AM - 7:00 PM, Thu: 11:00 AM - 7:00 PM, Fri: 11:00 AM - 7:00 PM, Sat: 11:00 AM - 6:00 PM, Sun: Closed"}
]