[
{"store_name": "Skyline Drive (Caf\u00e9)", "store_number": "602", "address": "4415 Skyline Dr.", "address2": "", "city": "Burnaby", "state": "BC", "zip_code": "V5C 5Y1", "country": "Canada", "phone_number": "(604) 564-1393", "latitude": "49.265134", "longitude": "-123.004235", "store_hours": "Mon: 09:00 am-08:00 pm, Tue: 09:00 am-08:00 pm, Wed: 09:00 am-08:00 pm, Thu: 09:00 am-08:00 pm, Fri: 08:00 am-08:00 pm, Sat: 08:00 am-08:00 pm, Sun: 09:00 am-08:00 pm"},
{"store_name": "Boundary Road (Country)", "store_number": "486", "address": "2350 Boundary Road (Accent Inn)", "address2": "", "city": "Burnaby", "state": "BC", "zip_code": "V5M 3Z3", "country": "Canada", "phone_number": "(604) 293-1242", "latitude": "49.2644334", "longitude": "-123.0244843", "store_hours": "Mon: 07:30 am-08:00 pm, Tue: 07:30 am-08:00 pm, Wed: 07:30 am-08:00 pm, Thu: 07:30 am-08:00 pm, Fri: 07:30 am-08:00 pm, Sat: 07:30 am-08:00 pm, Sun: 07:30 am-08:00 pm"},
{"store_name": "Lougheed", "store_number": "554", "address": "116 - 1090 Lougheed Highway", "address2": "", "city": "Coquitlam", "state": "BC", "zip_code": "", "country": "V3K 6G9", "phone_number": "(604) 553-3828", "latitude": "49.234637", "longitude": "-122.862858", "store_hours": "Mon: 08:00 am-08:00 pm, Tue: 08:00 am-08:00 pm, Wed: 08:00 am-08:00 pm, Thu: 08:00 am-08:00 pm, Fri: 08:00 am-08:00 pm, Sat: 08:00 am-08:00 pm, Sun: 08:00 am-08:00 pm"},
{"store_name": "Coquitlam Centre (Caf\u00e9)", "store_number": "504", "address": "Unit 2660 2929 Barnet Hwy", "address2": "", "city": "Coquitlam", "state": "BC", "zip_code": "V3B 5R5", "country": "Canada", "phone_number": "(778) 941-2907", "latitude": "49.278461", "longitude": "-122.798542", "store_hours": "Mon: 09:00 am-06:00 pm, Tue: 09:00 am-06:00 pm, Wed: 09:00 am-06:00 pm, Thu: 09:00 am-06:00 pm, Fri: 09:00 am-06:00 pm, Sat: 09:00 am-06:00 pm, Sun: 09:00 am-06:00 pm"},
{"store_name": "Central City", "store_number": "496", "address": "1076 Central City", "address2": "", "city": "Surrey", "state": "BC", "zip_code": "V3T 2W1", "country": "Canada", "phone_number": "(604) 582-2545", "latitude": "49.189999", "longitude": "-122.830000", "store_hours": "Mon: 08:00 am-08:00 pm, Tue: 08:00 am-08:00 pm, Wed: 08:00 am-08:00 pm, Thu: 08:00 am-08:00 pm, Fri: 08:00 am-08:00 pm, Sat: 08:00 am-08:00 pm, Sun: 08:00 am-08:00 pm"},
{"store_name": "Scottsdale", "store_number": "608", "address": "7135 120th St.", "address2": "", "city": "Surrey", "state": "BC", "zip_code": "V4E 2A9", "country": "Canada", "phone_number": "(604) 599-1784", "latitude": "49.133323", "longitude": "-122.890457", "store_hours": "Mon: 08:00 am-08:00 pm, Tue: 08:00 am-08:00 pm, Wed: 08:00 am-08:00 pm, Thu: 08:00 am-08:00 pm, Fri: 08:00 am-08:00 pm, Sat: 08:00 am-08:00 pm, Sun: 08:00 am-08:00 pm"},
{"store_name": "Evergreen", "store_number": "518", "address": "8958 152nd St", "address2": "", "city": "Surrey", "state": "BC", "zip_code": "V3R 4E7", "country": "Canada", "phone_number": "(604) 581-3212", "latitude": "49.165560", "longitude": "-122.801398", "store_hours": "Mon: 08:00 am-08:00 pm, Tue: 08:00 am-08:00 pm, Wed: 08:00 am-08:00 pm, Thu: 08:00 am-08:00 pm, Fri: 08:00 am-08:00 pm, Sat: 08:00 am-08:00 pm, Sun: 08:00 am-08:00 pm"},
{"store_name": "Ladner", "store_number": "538", "address": "5239 Ladner Trunk Rd", "address2": "", "city": "Ladner", "state": "BC", "zip_code": "V4K 1W4", "country": "Canada", "phone_number": "(604) 940-0833", "latitude": "49.090245", "longitude": "-123.077004", "store_hours": "Mon: 08:00 am-08:00 pm, Tue: 08:00 am-08:00 pm, Wed: 08:00 am-08:00 pm, Thu: 08:00 am-08:00 pm, Fri: 08:00 am-08:00 pm, Sat: 08:00 am-08:00 pm, Sun: 08:00 am-08:00 pm"},
{"store_name": "Cloverdale", "store_number": "502", "address": "17830 56th Ave", "address2": "", "city": "Cloverdale", "state": "BC", "zip_code": "V3S 1C7", "country": "Canada", "phone_number": "(604) 574-9912", "latitude": "49.104133", "longitude": "-122.728337", "store_hours": "Mon: 08:00 am-08:00 pm, Tue: 08:00 am-08:00 pm, Wed: 08:00 am-08:00 pm, Thu: 08:00 am-08:00 pm, Fri: 08:00 am-08:00 pm, Sat: 08:00 am-08:00 pm, Sun: 08:00 am-08:00 pm"},
{"store_name": "Maple Ridge (Country)", "store_number": "556", "address": "#101, 20110 Lougheed Highway", "address2": "", "city": "Maple Ridge", "state": "BC", "zip_code": "V2X 2P7", "country": "Canada", "phone_number": "(604) 465-1261", "latitude": "49.217475", "longitude": "-122.638777", "store_hours": "Mon: 09:00 am-07:00 pm, Tue: 09:00 am-07:00 pm, Wed: 09:00 am-07:00 pm, Thu: 09:00 am-07:00 pm, Fri: 08:00 am-08:00 pm, Sat: 08:00 am-08:00 pm, Sun: 08:00 am-07:00 pm"},
{"store_name": "Walnut Grove", "store_number": "633", "address": "8720 204 Street", "address2": "", "city": "Langley", "state": "BC", "zip_code": "V1M 2Y5", "country": "Canada", "phone_number": "(604) 888-4211", "latitude": "49.161877", "longitude": "-122.656918", "store_hours": "Mon: 07:00 am-08:00 pm, Tue: 07:00 am-08:00 pm, Wed: 07:00 am-08:00 pm, Thu: 07:00 am-08:00 pm, Fri: 07:00 am-08:00 pm, Sat: 07:00 am-08:00 pm, Sun: 08:00 am-08:00 pm"},
{"store_name": "White Rock", "store_number": "637", "address": "2160 King George Blvd.", "address2": "", "city": "Surrey", "state": "BC", "zip_code": "V4A 5A2", "country": "Canada", "phone_number": "(604) 531-2635", "latitude": "49.040942", "longitude": "-122.787861", "store_hours": "Mon: 08:00 am-07:00 pm, Tue: 08:00 am-07:00 pm, Wed: 08:00 am-07:00 pm, Thu: 08:00 am-07:00 pm, Fri: 08:00 am-07:00 pm, Sat: 08:00 am-07:00 pm, Sun: 08:00 am-07:00 pm"},
{"store_name": "Willowbrook", "store_number": "641", "address": "Unit 101 20125 64th Ave", "address2": "", "city": "Langley", "state": "BC", "zip_code": "V2Y 1M9", "country": "Canada", "phone_number": "(604) 533-8911", "latitude": "49.119443", "longitude": "-122.665085", "store_hours": "Mon: 09:00 am-08:00 pm, Tue: 09:00 am-08:00 pm, Wed: 09:00 am-08:00 pm, Thu: 09:00 am-08:00 pm, Fri: 09:00 am-08:00 pm, Sat: 09:00 am-08:00 pm, Sun: 09:00 am-08:00 pm"}
]